{
  "totalPages": 30,
  "currentPage": 1,
  "restaurants": [
    {
      "id": 72253,
      "name": "'Ulu Ocean Grill and Sushi Lounge",
      "address": "72-100 Kaupulehu Dr.",
      "city": "Kaupulehu",
      "state": "HI",
      "area": "Hawaii",
      "postal_code": "96740",
      "country": "US",
      "phone": "8083258000x",
      "lat": null,
      "lng": null,
      "price": null,
      "reserve_url": "http://www.opentable.com/single.aspx?rid=72253",
      "mobile_reserve_url": "http://mobile.opentable.com/opentable/?restId=72253",
      "image_url": "https://www.opentable.com/img/restimages/72253.jpg"
    },
    {
      "id": 49108,
      "name": "12th Ave. Grill",
      "address": "1120 12th Ave",
      "city": "Honolulu",
      "state": "HI",
      "area": "Hawaii",
      "postal_code": "96816",
      "country": "US",
      "phone": "8087329469",
      "lat": null,
      "lng": null,
      "price": null,
      "reserve_url": "http://www.opentable.com/single.aspx?rid=49108",
      "mobile_reserve_url": "http://mobile.opentable.com/opentable/?restId=49108",
      "image_url": "https://www.opentable.com/img/restimages/49108.jpg"
    },
    {
      "id": 92827,
      "name": "53 by the Sea",
      "address": "53 Ahui Street",
      "city": "Honolulu",
      "state": "HI",
      "area": "Hawaii",
      "postal_code": "96813",
      "country": "US",
      "phone": "8085365353x",
      "lat": null,
      "lng": null,
      "price": null,
      "reserve_url": "http://www.opentable.com/single.aspx?rid=92827",
      "mobile_reserve_url": "http://mobile.opentable.com/opentable/?restId=92827",
      "image_url": "https://www.opentable.com/img/restimages/92827.jpg"
    },
    {
      "id": 39541,
      "name": "Alan Wong's Restaurant",
      "address": "1857 S. King Street",
      "city": "Honolulu",
      "state": "HI",
      "area": "Hawaii",
      "postal_code": "96826",
      "country": "US",
      "phone": "8089492526x",
      "lat": null,
      "lng": null,
      "price": null,
      "reserve_url": "http://www.opentable.com/single.aspx?rid=39541",
      "mobile_reserve_url": "http://mobile.opentable.com/opentable/?restId=39541",
      "image_url": "https://www.opentable.com/img/restimages/39541.jpg"
    },
    {
      "id": 102163,
      "name": "Aloha Beer Co.",
      "address": "580 N. Nimitz Hwy.",
      "city": "Honolulu",
      "state": "HI",
      "area": "Hawaii",
      "postal_code": "96817",
      "country": "US",
      "phone": "8085455959",
      "lat": null,
      "lng": null,
      "price": null,
      "reserve_url": "http://www.opentable.com/single.aspx?rid=102163",
      "mobile_reserve_url": "http://mobile.opentable.com/opentable/?restId=102163",
      "image_url": "https://www.opentable.com/img/restimages/102163.jpg"
    },
    {
      "id": 76030,
      "name": "Aulii Luau",
      "address": "2440 Hoonani Road",
      "city": "Koloa",
      "state": "HI",
      "area": "Hawaii",
      "postal_code": "96756",
      "country": "US",
      "phone": "8086341499x",
      "lat": null,
      "lng": null,
      "price": null,
      "reserve_url": "http://www.opentable.com/single.aspx?rid=76030",
      "mobile_reserve_url": "http://mobile.opentable.com/opentable/?restId=76030",
      "image_url": "https://www.opentable.com/img/restimages/76030.jpg"
    },
    {
      "id": 13885,
      "name": "Azul",
      "address": "92-1001 Olani Street",
      "city": "Kapolei",
      "state": "HI",
      "area": "Hawaii",
      "postal_code": "96707",
      "country": "US",
      "phone": "8086790079x",
      "lat": null,
      "lng": null,
      "price": null,
      "reserve_url": "http://www.opentable.com/single.aspx?rid=13885",
      "mobile_reserve_url": "http://mobile.opentable.com/opentable/?restId=13885",
      "image_url": "https://www.opentable.com/img/restimages/13885.jpg"
    },
    {
      "id": 28060,
      "name": "Azure - The Royal Hawaiian",
      "address": "2259 Kalakaua Avenue",
      "city": "Honolulu",
      "state": "HI",
      "area": "Hawaii",
      "postal_code": "96815",
      "country": "US",
      "phone": "8089317440x",
      "lat": null,
      "lng": null,
      "price": null,
      "reserve_url": "http://www.opentable.com/single.aspx?rid=28060",
      "mobile_reserve_url": "http://mobile.opentable.com/opentable/?restId=28060",
      "image_url": "https://www.opentable.com/img/restimages/28060.jpg"
    },
    {
      "id": 87352,
      "name": "B's Bar & Grinds",
      "address": "66-197 Kamehameha Hwy",
      "city": "Haleiwa",
      "state": "HI",
      "area": "Hawaii",
      "postal_code": "96712",
      "country": "US",
      "phone": "8087444125",
      "lat": null,
      "lng": null,
      "price": null,
      "reserve_url": "http://www.opentable.com/single.aspx?rid=87352",
      "mobile_reserve_url": "http://mobile.opentable.com/opentable/?restId=87352",
      "image_url": "https://www.opentable.com/img/restimages/87352.jpg"
    },
    {
      "id": 56422,
      "name": "Baci Bistro",
      "address": "30 Aulike St.",
      "city": "Kailua",
      "state": "HI",
      "area": "Hawaii",
      "postal_code": "96734",
      "country": "US",
      "phone": "8082627555",
      "lat": null,
      "lng": null,
      "price": null,
      "reserve_url": "http://www.opentable.com/single.aspx?rid=56422",
      "mobile_reserve_url": "http://mobile.opentable.com/opentable/?restId=56422",
      "image_url": "https://www.opentable.com/img/restimages/56422.jpg"
    }
  ]
}